City_ID,City,Country,Lat,Lng,Max Temp,Humidity,Cloudiness,Wind Speed,Current Description
0,Tumaco,CO,1.7986,-78.8156,78.24,88,98,4.54,light rain
1,Livingstonia,MW,-10.606,34.1063,66.67,86,100,3.2,light rain
2,Fairbanks,US,64.8378,-147.7164,-7.01,77,1,11.5,clear sky
3,Souillac,MU,-20.5167,57.5167,78.8,83,75,6.91,light rain
4,Jian,CN,27.1172,114.9793,50.4,83,100,7.29,overcast clouds
5,Saltpond,GH,5.2091,-1.0606,81.16,83,28,13.29,scattered clouds
6,Ixtapa,MX,20.7,-105.2,75.2,64,1,11.5,clear sky
7,Praia Da Vitoria,PT,38.7333,-27.0667,60.8,77,40,12.5,scattered clouds
8,Puerto Ayora,EC,-0.7393,-90.3518,80.6,83,75,10.36,broken clouds
9,Albany,US,42.6001,-73.9662,24.01,46,85,1.23,overcast clouds
10,Busselton,AU,-33.65,115.3333,55.99,92,89,1.01,overcast clouds
11,Punta Arenas,CL,-53.15,-70.9167,66.2,55,0,11.5,clear sky
12,Cabedelo,BR,-6.9811,-34.8339,80.6,78,20,10.36,few clouds
13,Stokmarknes,NO,68.5646,14.9108,28.99,62,89,15.01,overcast clouds
14,Kenai,US,60.5544,-151.2583,12.0,78,1,3.44,clear sky
15,Merauke,ID,-8.4667,140.3333,80.8,83,100,7.11,overcast clouds
16,Esperance,AU,-33.8667,121.9,59.0,94,75,5.75,broken clouds
17,Rikitea,PF,-23.1203,-134.9692,77.58,69,22,4.32,light rain
18,Castro,BR,-24.7911,-50.0119,66.06,78,33,3.13,scattered clouds
19,Ternate,ID,0.8,127.4,81.0,78,96,4.25,overcast clouds
20,Inirida,CO,3.8653,-67.9239,84.0,74,86,1.5,overcast clouds
21,Alta Floresta,BR,-9.8756,-56.0861,75.7,93,100,1.92,overcast clouds
22,Vaini,TO,-21.2,-175.2,80.6,94,90,12.66,moderate rain
23,Bhongir,IN,17.5108,78.8889,64.4,63,67,3.44,broken clouds
24,Cape Town,ZA,-33.9258,18.4232,70.0,88,20,23.02,few clouds
25,Mataura,NZ,-46.1927,168.8643,55.42,95,100,5.77,light rain
26,Ribeira Grande,PT,38.5167,-28.7,60.8,82,40,17.27,scattered clouds
27,East London,ZA,-33.0153,27.9116,68.97,77,26,5.41,scattered clouds
28,Butaritari,KI,3.0707,172.7902,81.81,83,80,20.18,broken clouds
29,Qaanaaq,GL,77.484,-69.3632,20.32,80,100,6.67,overcast clouds
30,Carnarvon,AU,-24.8667,113.6333,73.4,100,0,12.66,clear sky
31,Kuna,US,43.4918,-116.4201,43.0,36,1,12.66,clear sky
32,Madinat Sittah Uktubar,EG,29.8167,31.05,71.6,40,40,2.3,haze
33,Deputatskiy,RU,69.3,139.9,-21.53,88,1,3.02,clear sky
34,Bilibino,RU,68.0546,166.4372,4.35,81,100,6.67,overcast clouds
35,Lebu,CL,-37.6167,-73.65,63.66,82,48,9.15,scattered clouds
36,Kapoeta,SS,4.7717,33.5903,80.2,35,30,10.42,scattered clouds
37,Vao,NC,-22.6667,167.4833,77.22,82,14,6.58,few clouds
38,Hilo,US,19.7297,-155.09,82.4,47,20,3.44,few clouds
39,Hermanus,ZA,-34.4187,19.2345,64.0,90,8,4.85,clear sky
40,Hays,US,30.0502,-98.0336,77.0,50,40,16.11,scattered clouds
41,Karpathos,GR,35.507,27.2132,59.0,94,24,3.44,few clouds
42,Ahuimanu,US,21.4447,-157.8378,80.6,44,1,19.57,clear sky
43,Dillon,US,34.4166,-79.3712,60.01,62,90,4.61,overcast clouds
44,Saint-Philippe,RE,-21.3585,55.7679,77.0,73,0,5.75,clear sky
45,Rundu,NA,-17.9333,19.7667,67.53,93,100,7.81,light rain
46,Ponta Do Sol,PT,32.6667,-17.1,59.0,70,23,3.0,few clouds
47,Vila Velha,BR,-20.3297,-40.2925,78.01,94,75,3.44,broken clouds
48,Atar,MR,20.5169,-13.0499,64.31,27,0,9.55,clear sky
49,Ayan,RU,56.45,138.1667,-4.23,79,100,16.64,overcast clouds
50,Sao Filipe,CV,14.8961,-24.4956,70.11,77,100,12.39,overcast clouds
51,Auki,SB,-8.7676,160.7034,81.12,83,99,10.09,light rain
52,Tiksi,RU,71.6872,128.8694,-26.27,87,100,4.43,overcast clouds
53,Nikolskoye,RU,59.7035,30.7861,7.0,84,0,3.06,clear sky
54,Kudahuvadhoo,MV,2.6708,72.8944,81.97,79,78,20.62,broken clouds
55,Cornwall,CA,45.0181,-74.7281,19.4,53,90,5.75,overcast clouds
56,Barrow,US,71.2906,-156.7887,-29.2,84,1,11.5,clear sky
57,Anadyr,RU,64.75,177.4833,10.4,72,40,20.13,snow
58,Bluff,NZ,-46.6,168.3333,56.39,94,100,10.74,overcast clouds
59,Tasiilaq,GL,65.6145,-37.6368,23.0,54,90,11.5,overcast clouds
60,Bethel,US,41.3712,-73.414,26.01,39,1,3.44,clear sky
61,Nyuksenitsa,RU,60.4128,44.2397,-12.35,88,69,5.75,broken clouds
62,Ushuaia,AR,-54.8,-68.3,64.4,59,0,11.5,clear sky
63,Marystown,CA,47.1666,-55.1483,30.25,97,100,27.72,snow
64,Kavieng,PG,-2.5744,150.7967,83.57,76,96,10.22,overcast clouds
65,Port Alfred,ZA,-33.5906,26.891,68.0,86,64,3.0,broken clouds
66,Nome,US,64.5011,-165.4064,8.6,52,90,6.91,overcast clouds
67,Avarua,CK,-21.2078,-159.775,84.2,79,27,8.05,light rain
68,Vila Franca Do Campo,PT,37.7167,-25.4333,59.0,94,75,17.27,broken clouds
69,Havre-Saint-Pierre,CA,50.2334,-63.5986,24.8,74,40,10.36,scattered clouds
70,Bambanglipuro,ID,-7.95,110.2833,76.03,87,94,3.38,overcast clouds
71,Hobart,AU,-42.8794,147.3294,55.99,58,75,11.5,broken clouds
72,Roma,US,43.2128,-75.4557,24.8,36,1,2.84,clear sky
73,Caravelas,BR,-17.7125,-39.2481,71.76,96,100,1.21,light rain
74,Namie,JP,37.4833,141.0,28.0,71,1,12.66,clear sky
75,Kavaratti,IN,10.5669,72.642,81.14,64,0,6.98,clear sky
76,Port Lincoln,AU,-34.7333,135.8667,67.64,74,12,14.07,few clouds
77,Tshikapa,CD,-6.4167,20.8,72.73,89,100,1.48,light rain
78,Rocha,UY,-34.4833,-54.3333,65.07,88,92,5.1,overcast clouds
79,Tynda,RU,55.1667,124.7167,-10.1,87,95,3.36,overcast clouds
80,Port Elizabeth,ZA,-33.918,25.5701,68.0,83,40,6.91,scattered clouds
81,Atuona,PF,-9.8,-139.0333,79.7,76,89,20.62,overcast clouds
82,Yellowknife,CA,62.456,-114.3525,-29.2,68,90,20.71,snow
83,Najran,SA,17.4924,44.1277,53.6,94,40,7.87,scattered clouds
84,Haines Junction,CA,60.7522,-137.5108,-5.8,54,100,6.91,overcast clouds
85,Chuy,UY,-33.6971,-53.4616,67.87,92,88,5.84,overcast clouds
86,Longyearbyen,SJ,78.2186,15.6401,14.0,52,0,10.36,clear sky
87,Curumani,CO,9.1999,-73.5427,94.41,37,9,6.13,clear sky
88,Victor Harbor,AU,-35.5667,138.6167,66.99,87,0,10.4,clear sky
89,Sitka,US,57.0531,-135.33,24.8,54,90,10.36,light snow
90,Dikson,RU,73.5069,80.5464,-31.36,85,79,13.96,broken clouds
91,Saint-Augustin,CA,51.226,-58.6502,34.56,96,100,14.47,light rain
92,Tautira,PF,-17.7333,-149.15,87.01,62,20,10.36,few clouds
93,Yumen,CN,40.2833,97.2,26.53,76,29,7.74,scattered clouds
94,Siniscola,IT,40.5719,9.6922,55.4,88,40,5.75,light rain
95,Korla,CN,41.7597,86.1469,30.65,81,42,2.75,scattered clouds
96,Alice Springs,AU,-23.7,133.8833,86.0,30,99,6.91,overcast clouds
97,Sohagpur,IN,22.7,78.2,53.22,40,0,0.76,clear sky
98,Lompoc,US,34.6391,-120.4579,60.8,63,1,9.22,clear sky
99,Kapaa,US,22.0752,-159.319,77.0,60,75,14.97,broken clouds
100,Guerrero Negro,MX,27.9769,-114.0611,68.68,42,48,12.77,scattered clouds
101,Geraldton,AU,-28.7667,114.6,62.6,88,75,1.14,broken clouds
102,Evanston,US,42.0411,-87.6901,16.0,79,90,4.61,snow
103,Lobatse,BW,-25.2167,25.6667,68.0,94,1,4.61,clear sky
104,Pangnirtung,CA,66.1451,-65.7125,15.8,57,20,4.61,few clouds
105,Mitchell,US,43.7094,-98.0298,6.8,61,75,3.44,broken clouds
106,Mar Del Plata,AR,-38.0023,-57.5575,64.99,59,40,14.97,scattered clouds
107,Clemson,US,34.6834,-82.8374,57.0,47,1,4.61,clear sky
108,Kalmunai,LK,7.4167,81.8167,75.38,82,97,12.44,overcast clouds
109,Codrington,AU,-38.2667,141.9667,57.79,75,6,12.08,clear sky
110,Maniwaki,CA,46.3834,-75.966,17.6,45,97,2.3,overcast clouds
111,Abha,SA,18.2164,42.5053,50.0,81,40,3.44,scattered clouds
112,Mehamn,NO,71.0357,27.8492,23.0,68,40,23.02,light snow
113,Jadu,LY,31.953,12.0261,53.58,40,1,14.72,clear sky
114,Ancud,CL,-41.8697,-73.8203,77.0,47,0,8.05,clear sky
115,Erenhot,CN,43.6475,111.9767,16.0,89,0,7.74,clear sky
116,Mezhdurechensk,RU,53.6942,88.0603,24.39,95,100,12.46,snow
117,Thompson,CA,55.7435,-97.8558,-16.6,69,90,13.8,snow
118,Antofagasta,CL,-23.65,-70.4,68.0,77,20,16.11,few clouds
119,Bambous Virieux,MU,-20.3428,57.7575,78.8,83,75,6.91,light rain
120,Klaksvik,FO,62.2266,-6.589,30.2,69,30,9.22,scattered clouds
121,Vostok,RU,46.4856,135.8833,-14.4,89,100,6.02,overcast clouds
122,Huarmey,PE,-10.0681,-78.1522,75.6,69,65,9.62,broken clouds
123,Gat,IL,31.61,34.7642,62.01,52,94,5.77,overcast clouds
124,Pevek,RU,69.7008,170.3133,-12.28,82,100,0.49,overcast clouds
125,Port-Gentil,GA,-0.7193,8.7815,80.6,94,40,2.3,scattered clouds
126,Haimen,CN,23.1935,116.6142,62.6,63,0,11.18,clear sky
127,Oranjemund,NA,-28.55,16.4333,64.54,86,0,11.77,clear sky
128,Letlhakane,BW,-21.4167,25.5833,71.26,75,92,8.57,light rain
129,Lithakia,GR,37.7167,20.8333,53.6,87,75,3.44,broken clouds
130,Berlevag,NO,70.8578,29.0864,24.8,58,40,17.27,light snow
131,Ust-Ishim,RU,57.6935,71.1665,-9.83,90,99,4.43,overcast clouds
132,Sayat,TM,38.7839,63.8803,39.2,93,0,4.61,clear sky
133,Martapura,ID,-3.4167,114.85,77.0,94,100,1.14,overcast clouds
134,Springfield,US,37.2153,-93.2982,32.0,93,90,4.61,light intensity drizzle
135,Jamestown,US,42.097,-79.2353,23.0,63,90,8.05,overcast clouds
136,Ilulissat,GL,69.2167,-51.1,24.8,36,0,24.16,clear sky
137,Tuktoyaktuk,CA,69.4541,-133.0374,-40.0,67,1,2.3,mist
138,Hamilton,US,39.1834,-84.5333,36.0,41,90,9.22,overcast clouds
139,Indiana,US,40.0003,-86.2503,26.01,79,90,5.75,overcast clouds
140,Upernavik,GL,72.7868,-56.1549,15.08,78,0,5.41,clear sky
141,Katherine,AU,-14.4667,132.2667,75.2,94,90,5.75,overcast clouds
142,Talnakh,RU,69.4865,88.3972,2.91,91,100,9.84,overcast clouds
143,Brae,GB,60.3964,-1.353,32.52,85,40,13.71,scattered clouds
144,Faya,SA,18.3851,42.4509,50.0,81,40,3.44,scattered clouds
145,Tandil,AR,-37.3217,-59.1332,66.99,62,2,7.0,clear sky
146,Lavrentiya,RU,65.5833,-171.0,-3.82,84,100,10.78,overcast clouds
147,Chokurdakh,RU,70.6333,147.9167,-11.58,85,0,10.74,clear sky
148,Honiara,SB,-9.4333,159.95,79.39,83,100,4.72,moderate rain
149,Mahanoro,MG,-19.9,48.8,77.5,87,84,5.41,light rain
150,Malakal,SS,9.5334,31.6605,74.32,20,23,7.38,few clouds
151,Wajima,JP,37.4,136.9,32.92,91,100,21.03,light snow
152,Khuzhir,RU,53.1939,107.3397,12.07,93,5,4.25,clear sky
153,Nantucket,US,41.2835,-70.0995,25.0,63,1,5.75,clear sky
154,Georgetown,MY,5.4112,100.3354,77.0,88,40,2.3,light rain
155,Haicheng,CN,40.8516,122.7475,19.76,87,0,7.7,clear sky
156,Portland,US,45.5234,-122.6762,46.99,49,90,1.68,overcast clouds
157,Te Anau,NZ,-45.4167,167.7167,57.06,92,100,5.17,light rain
158,Eyl,SO,7.9803,49.8164,74.43,75,63,16.84,broken clouds
159,Conceicao Da Barra,BR,-18.5933,-39.7322,72.54,96,100,4.85,overcast clouds
160,Tucupita,VE,9.0622,-62.051,74.71,94,9,4.81,clear sky
161,Okhotsk,RU,59.3833,143.3,13.93,89,100,13.91,overcast clouds
162,Zimapan,MX,20.75,-99.35,78.13,17,0,3.18,clear sky
163,Bijie,CN,27.3125,105.2942,42.48,79,100,2.08,overcast clouds
164,Nelson Bay,AU,-32.7167,152.15,73.0,73,75,10.36,broken clouds
165,Fare,PF,-16.7,-151.0167,81.73,76,18,11.99,few clouds
166,Sangueya,GN,10.7,-14.3667,71.85,84,18,0.69,few clouds
167,Taoudenni,ML,22.6783,-3.9836,64.38,25,0,10.56,clear sky
168,Namatanai,PG,-3.6667,152.4333,82.8,79,86,6.11,overcast clouds
169,Itoman,JP,26.1247,127.6694,60.8,63,75,13.8,broken clouds
170,Jacareacanga,BR,-6.2222,-57.7528,79.79,83,100,0.49,moderate rain
171,Asosa,ET,10.0667,34.5333,62.13,39,1,4.41,clear sky
172,Dingle,PH,10.9995,122.6711,74.19,95,99,7.96,overcast clouds
173,Nicoya,CR,10.1483,-85.452,89.6,43,0,17.27,clear sky
174,Lata,PT,40.1629,-8.3327,53.6,87,75,6.91,broken clouds
175,Bloomfield,US,40.8068,-74.1854,28.4,37,1,4.61,clear sky
176,Moron,AR,-34.6534,-58.6198,73.0,68,40,12.66,scattered clouds
177,Airai,TL,-8.9266,125.4092,60.96,100,100,2.98,overcast clouds
178,Wynyard,AU,-41.0,145.7167,57.99,54,4,12.1,clear sky
179,Chebsara,RU,59.2002,38.8356,-6.2,92,88,5.73,overcast clouds
180,Cidreira,BR,-30.1811,-50.2056,73.56,74,0,12.26,clear sky
181,Yeppoon,AU,-23.1333,150.7333,78.8,69,75,11.5,broken clouds
182,Tabas,IR,33.5959,56.9244,51.8,54,0,4.61,clear sky
183,New Norfolk,AU,-42.7826,147.0587,55.99,68,36,1.01,scattered clouds
184,Weyburn,CA,49.6668,-103.8511,-13.0,58,31,21.85,scattered clouds
185,Severo-Kurilsk,RU,50.6789,156.125,18.68,86,15,4.65,few clouds
186,Kiunga,PG,-6.1219,141.2906,74.53,97,100,2.35,overcast clouds
187,Itarema,BR,-2.9248,-39.9167,80.15,83,54,12.26,moderate rain
188,Goundi,TD,9.3627,17.366,71.65,19,55,4.92,broken clouds
189,Akyab,MM,20.15,92.9,63.3,65,0,8.86,clear sky
190,Saint Anthony,US,45.0205,-93.218,1.4,50,1,8.05,clear sky
191,Oum Hadjer,TD,13.2954,19.6966,72.37,18,93,10.11,overcast clouds
192,Tazovskiy,RU,67.4667,78.7,-14.91,88,39,5.32,scattered clouds
193,Bredasdorp,ZA,-34.5322,20.0403,62.6,88,10,5.75,clear sky
194,Salalah,OM,17.0151,54.0924,71.6,73,0,2.3,clear sky
195,Bodden Town,KY,19.2833,-81.25,82.4,74,20,12.66,few clouds
196,Gizo,SB,-8.103,156.8419,84.38,72,96,8.79,light rain
197,Marawi,PH,7.9986,124.2928,73.99,93,99,5.01,overcast clouds
198,The Valley,AI,18.217,-63.0578,82.4,69,20,11.5,few clouds
199,Pisco,PE,-13.7,-76.2167,77.0,69,0,19.57,clear sky
200,Camapua,BR,-19.5314,-54.0439,76.5,66,15,8.66,few clouds
201,Broome,US,42.2506,-75.833,21.99,35,1,4.61,clear sky
202,Kodiak,US,57.79,-152.4072,33.8,64,1,16.11,clear sky
203,Labrea,BR,-7.2586,-64.7981,85.53,70,99,2.13,heavy intensity rain
204,Komsomolskiy,UZ,40.4272,71.7189,46.4,81,90,2.3,mist
205,Marsh Harbour,BS,26.5412,-77.0636,76.28,81,9,9.84,clear sky
206,Masumbwe,TZ,-3.6333,32.1833,67.46,90,100,3.36,overcast clouds
207,Bilma,NE,18.6853,12.9164,67.53,21,100,6.02,overcast clouds
208,Englehart,CA,47.8169,-79.8664,12.2,57,20,14.97,light snow
209,Gonbad-E Qabus,IR,37.25,55.1672,44.6,93,0,0.63,clear sky
210,Mirnyy,RU,62.5353,113.9611,-9.54,91,100,4.18,overcast clouds
211,Adrar,MR,20.5022,-10.0711,62.47,28,13,9.33,few clouds
212,Cabo San Lucas,MX,22.8909,-109.9124,75.99,56,1,4.61,clear sky
213,Torbay,CA,47.6666,-52.7314,33.01,100,90,18.41,snow
214,Tuatapere,NZ,-46.1333,167.6833,54.45,93,100,9.55,light rain
215,Snyder,US,32.7179,-100.9176,55.4,44,1,3.67,clear sky
216,Boda,CF,4.3189,17.4695,70.66,23,82,2.01,broken clouds
217,Ustye,RU,59.6304,39.736,-4.65,92,64,5.35,broken clouds
218,Buala,SB,-8.145,159.5921,83.73,76,98,10.56,light rain
219,Burns Lake,CA,54.2331,-125.7533,-0.4,50,95,5.75,overcast clouds
220,Hithadhoo,MV,-0.6,73.0833,82.29,78,85,10.98,overcast clouds
221,Hasaki,JP,35.7333,140.8333,32.0,43,20,8.05,few clouds
222,Bokoro,TD,12.3807,17.0568,73.6,18,29,8.75,scattered clouds
223,Arawa,PG,-6.2132,155.5367,81.95,80,89,5.86,light rain
224,Avonbridge,GB,55.9335,-3.7412,32.0,86,75,11.5,snow
225,Gardanne,FR,43.4549,5.4691,46.99,92,100,6.82,light rain
226,Provideniya,RU,64.3833,-173.3,5.0,85,90,20.13,light snow
227,Coahuayana,MX,18.7333,-103.6833,80.6,54,20,5.73,few clouds
228,San Cristobal,VE,7.7669,-72.225,87.8,48,40,10.36,scattered clouds
229,Quatre Cocos,MU,-20.2078,57.7625,78.8,83,75,6.91,light rain
230,Manado,ID,1.487,124.8455,75.2,94,40,2.3,scattered clouds
231,Camacha,PT,33.0833,-16.3333,59.0,88,20,6.91,few clouds
232,Batemans Bay,AU,-35.7167,150.1833,69.01,63,79,3.0,broken clouds
233,Macheng,CN,31.1783,115.0319,44.28,69,87,2.37,overcast clouds
234,Longyan,CN,25.1072,117.0225,55.67,80,100,2.66,overcast clouds
235,Gobabis,NA,-22.45,18.9667,70.12,68,96,9.15,overcast clouds
236,Yulara,AU,-25.2406,130.9889,86.0,23,90,17.27,overcast clouds
237,Dunedin,NZ,-45.8742,170.5036,61.0,86,100,1.99,moderate rain
238,Jieshi,CN,22.8134,115.8257,64.99,68,100,3.0,overcast clouds
239,Chingola,ZM,-12.529,27.8838,64.67,99,100,1.72,moderate rain
240,Pingzhuang,CN,42.0372,119.2889,10.17,84,0,2.24,clear sky
241,Khatanga,RU,71.9667,102.5,-18.71,82,4,12.5,clear sky
242,Erzin,TR,36.9559,36.2,53.6,100,75,5.75,broken clouds
243,Sembakung,ID,3.8167,117.25,75.2,100,75,2.3,moderate rain
244,Matagami,CA,49.7502,-77.6328,5.0,51,1,5.75,clear sky
245,Bathsheba,BB,13.2167,-59.5167,80.6,57,40,16.11,scattered clouds
246,Henties Bay,NA,-22.116,14.2845,66.56,78,51,14.7,broken clouds
247,Port Macquarie,AU,-31.4333,152.9167,70.0,94,90,5.75,overcast clouds
248,Coihaique,CL,-45.5752,-72.0662,87.8,25,0,3.44,clear sky
249,Tura,IN,25.5198,90.2201,57.02,49,0,2.57,clear sky
250,Phalodi,IN,27.1333,72.3667,62.47,28,19,4.88,few clouds
251,Turan,VN,16.0678,108.2208,73.4,94,75,2.3,mist
252,Kaitangata,NZ,-46.2817,169.8464,64.99,91,100,3.0,light rain
253,Camana,PE,-16.6228,-72.7111,75.16,72,70,7.43,broken clouds
254,Purpe,RU,64.4803,76.6897,-14.37,90,28,4.79,scattered clouds
255,Grindavik,IS,63.8424,-22.4338,32.0,74,0,9.22,clear sky
256,Diego De Almagro,CL,-26.3667,-70.05,77.63,27,0,10.51,clear sky
257,Buin,CL,-33.7333,-70.75,78.8,41,0,6.91,clear sky
258,Antalaha,MG,-14.9003,50.2788,76.26,87,67,3.94,light rain
259,Sisimiut,GL,66.9395,-53.6735,21.51,77,0,10.87,clear sky
260,Lagoa,PT,39.05,-27.9833,59.41,75,100,25.88,overcast clouds
261,Ugoofaaru,MV,5.6667,73.0,80.98,69,13,6.33,few clouds
262,Flinders,AU,-34.5833,150.8552,68.0,82,97,1.01,overcast clouds
263,Padang,ID,-0.9492,100.3543,75.2,88,40,2.3,light rain
264,Tianpeng,CN,30.9866,103.9393,46.99,100,100,3.69,mist
265,Saldanha,ZA,-33.0117,17.9442,66.2,82,0,14.97,clear sky
266,Koraput,IN,18.8167,82.7167,53.96,42,0,1.43,clear sky
267,Laguna,US,38.421,-121.4238,64.0,51,1,3.44,clear sky
268,San Patricio,US,28.017,-97.5169,78.8,69,90,16.11,overcast clouds
269,Kaina,NG,12.6374,8.5873,69.8,28,0,4.61,clear sky
270,Itaituba,BR,-4.2761,-55.9836,86.0,70,40,4.61,scattered clouds
271,Jais,IN,26.25,81.5333,53.73,66,0,5.39,clear sky
272,Funtua,NG,11.5233,7.3081,66.7,23,0,8.88,clear sky
273,Ruwi,OM,23.5996,58.5507,69.8,78,0,3.44,clear sky
274,Yarmouth,US,41.7057,-70.2286,27.0,54,1,3.44,clear sky
275,Belmonte,BR,-15.8631,-38.8828,73.4,88,75,3.44,broken clouds
276,Sapa,PH,5.1544,120.3241,79.97,86,78,7.36,broken clouds
277,Leningradskiy,RU,69.3833,178.4167,-22.43,84,74,10.25,broken clouds
278,Neftcala,AZ,39.3742,49.2472,46.74,94,80,5.68,broken clouds
279,Kahului,US,20.8947,-156.47,78.8,57,40,23.02,scattered clouds
280,Tereze,RU,43.9361,42.4434,26.6,100,90,17.9,light snow
281,Contamana,PE,-7.3333,-75.0167,90.0,54,100,5.26,overcast clouds
282,Santa Luzia,BR,-19.7697,-43.8514,73.4,73,40,5.75,scattered clouds
283,Dandong,CN,40.1292,124.3947,17.02,81,0,2.44,clear sky
284,Noumea,NC,-22.2763,166.4572,81.0,69,0,3.44,clear sky
285,San Policarpo,PH,12.1791,125.5072,78.15,84,100,20.15,moderate rain
286,Yilan,TW,24.757,121.753,60.01,99,100,7.83,overcast clouds
287,Onda,ES,39.9667,-0.25,55.99,54,24,3.0,few clouds
288,Praya,CV,14.9215,-23.5087,68.0,77,90,18.41,overcast clouds
289,Baft,IR,29.234,56.6057,40.32,66,0,4.27,clear sky
290,Abnub,EG,27.2696,31.1511,62.6,39,0,9.22,clear sky
291,Teahupoo,PF,-17.8333,-149.2667,87.01,62,20,10.36,few clouds
292,Lorengau,PG,-2.0226,147.2712,83.97,74,30,7.67,scattered clouds
293,Tsagan Aman,RU,47.5639,46.7218,21.78,73,100,4.36,overcast clouds
294,Aasiaat,GL,68.7098,-52.8699,17.19,86,0,17.52,clear sky
295,Grand Gaube,MU,-20.0064,57.6608,75.99,84,4,1.99,clear sky
296,Harper,LR,4.375,-7.7169,78.66,85,99,3.85,light rain
297,Lodja,CD,-3.4833,23.4333,73.83,65,100,0.83,overcast clouds
298,Boyolangu,ID,-8.1181,111.8935,74.84,89,99,6.15,overcast clouds
299,North Bend,US,43.4065,-124.2243,50.0,61,1,8.05,clear sky
300,Cravinhos,BR,-21.3403,-47.7294,73.4,73,75,5.75,broken clouds
301,Waterloo,CA,43.4668,-80.5164,14.0,57,1,6.91,clear sky
302,Faanui,PF,-16.4833,-151.75,81.61,77,13,12.97,light rain
303,Olga,RU,43.7444,135.2892,4.78,80,90,12.44,overcast clouds
304,Kalat,PK,29.0225,66.5916,44.37,38,67,3.83,broken clouds
305,Qostanay,KZ,53.1667,63.5833,-2.2,78,0,11.18,clear sky
306,Prado,BR,-17.3411,-39.2208,72.21,97,100,3.51,light rain
307,Coquimbo,CL,-29.9533,-71.3436,66.2,68,0,12.66,clear sky
308,Muroto,JP,33.2833,134.15,37.4,56,20,5.75,few clouds
309,Kruisfontein,ZA,-34.0033,24.7314,64.0,85,10,1.99,clear sky
310,Labuhan,ID,-6.8844,112.2051,78.06,86,91,8.23,overcast clouds
311,Taunggyi,MM,20.7833,97.0333,45.37,87,0,1.32,clear sky
312,Matay,EG,28.419,30.7792,66.83,26,100,8.81,overcast clouds
313,The Village,US,35.5609,-97.5514,24.01,93,90,14.97,mist
314,Vinh,VN,18.6667,105.6667,64.49,89,100,6.85,overcast clouds
315,Hay River,CA,60.8156,-115.7999,-25.6,62,100,20.71,overcast clouds
316,Sol-Iletsk,RU,51.1631,54.9918,-18.72,87,18,8.79,few clouds
317,Reconquista,AR,-29.15,-59.65,87.48,37,75,2.68,broken clouds
318,Norman Wells,CA,65.282,-126.8329,-27.4,68,1,9.22,clear sky
319,Arraial Do Cabo,BR,-22.9661,-42.0278,73.4,94,75,6.15,heavy intensity rain
320,Acarau,BR,-2.8856,-40.12,80.08,84,84,12.8,moderate rain
321,Taltal,CL,-25.4,-70.4833,69.26,67,29,7.85,scattered clouds
322,Nha Trang,VN,12.25,109.1833,77.0,69,20,4.61,few clouds
323,Prince Rupert,CA,54.3161,-130.3201,30.2,46,90,8.05,overcast clouds
324,Ambilobe,MG,-13.2,49.05,75.43,92,100,1.59,overcast clouds
325,San Felice Sul Panaro,IT,44.8332,11.1426,50.0,96,67,3.0,moderate rain
326,Tabou,CI,4.423,-7.3528,78.15,87,100,3.89,overcast clouds
327,Iqaluit,CA,63.7506,-68.5145,23.0,86,75,4.61,broken clouds
328,Kautokeino,NO,69.0125,23.0412,3.74,92,94,3.2,overcast clouds
329,Champerico,GT,14.3,-91.9167,87.8,62,40,13.8,scattered clouds
330,Rehoboth,NA,-23.3167,17.0833,77.29,33,45,6.24,scattered clouds
331,Sur,OM,22.5667,59.5289,64.6,77,82,1.9,broken clouds
332,Nanortalik,GL,60.1432,-45.2371,29.16,91,84,13.65,broken clouds
333,Xichang,CN,27.8964,102.2634,42.1,66,100,0.36,overcast clouds
334,Lages,BR,-27.8161,-50.3261,65.77,65,37,3.85,light rain
335,Vardo,NO,70.3705,31.1107,23.0,86,75,13.8,broken clouds
336,Hervey Bay,AU,-25.2986,152.8535,77.0,72,47,5.99,scattered clouds
337,Gornopravdinsk,RU,60.05,69.9,-18.38,88,53,3.31,broken clouds
338,Baruun-Urt,MN,46.6806,113.2792,4.53,91,0,10.07,clear sky
339,Sobolevo,RU,54.4299,31.8996,7.23,92,100,11.27,light snow
340,Port Hedland,AU,-20.3167,118.5667,75.2,83,0,10.36,clear sky
341,Bengkulu,ID,-3.8004,102.2655,75.63,75,91,5.32,overcast clouds
342,Ivaipora,BR,-24.2478,-51.6847,68.04,79,0,3.44,clear sky
343,Kohlu,PK,29.8962,69.252,49.28,43,33,1.9,scattered clouds
344,Khandyga,RU,62.6667,135.6,-30.01,83,61,3.15,broken clouds
345,Tupik,RU,54.4253,119.9327,-7.8,87,61,1.92,broken clouds
346,Yerbogachen,RU,61.2767,108.0108,4.19,94,41,2.98,scattered clouds
347,Tutoia,BR,-2.7619,-42.2744,84.2,79,40,13.8,scattered clouds
348,Tambura,SS,5.6,27.4667,68.02,24,70,3.83,broken clouds
349,Saskylakh,RU,71.9167,114.0833,-30.71,84,17,2.98,few clouds
350,Hualmay,PE,-11.0964,-77.6139,75.06,70,100,9.95,overcast clouds
351,Sihor,IN,21.7,71.9667,63.05,29,0,8.37,clear sky
352,Narsaq,GL,60.9167,-46.05,39.2,28,75,37.98,broken clouds
353,Badou,TG,7.5833,0.6,79.29,59,2,3.87,clear sky
354,Pitsunda,GE,43.1592,40.3378,59.0,51,90,15.66,overcast clouds
355,Cascais,PT,38.6979,-9.4215,57.0,91,100,17.25,overcast clouds
356,Dwarka,IN,22.2394,68.9678,69.73,61,85,12.24,overcast clouds
357,Kholtoson,RU,50.2981,103.3097,6.37,86,14,3.44,few clouds
358,Tursunzoda,TJ,38.5144,68.2333,53.6,58,75,2.24,broken clouds
359,Surt,LY,31.2089,16.5887,63.39,41,0,6.85,clear sky
360,Namibe,AO,-15.1961,12.1522,72.3,77,98,6.44,overcast clouds
361,Lasa,IT,46.6166,10.7002,37.4,85,0,3.65,clear sky
362,Saint George,US,37.1041,-113.5841,64.0,14,1,2.82,clear sky
363,Gemena,CD,3.25,19.7667,73.56,25,60,0.4,broken clouds
364,Muros,ES,42.7762,-9.0603,51.01,88,100,10.0,light rain
365,Mukacheve,UA,48.4392,22.7178,45.0,96,100,7.0,overcast clouds
366,Batagay-Alyta,RU,67.8006,130.4114,-23.12,75,1,0.65,clear sky
367,Qinzhou,CN,21.95,108.6167,64.92,70,100,5.75,moderate rain
368,Kitimat,CA,54.0524,-128.6534,21.0,63,2,5.19,clear sky
369,Havelock,US,34.8791,-76.9013,52.0,57,40,9.22,scattered clouds
370,Margate,GB,51.3813,1.3862,30.0,78,100,4.0,snow
371,Luderitz,NA,-26.6481,15.1594,72.0,51,0,20.18,clear sky
372,Garowe,SO,8.4054,48.4845,66.92,77,15,12.08,few clouds
373,Isangel,VU,-19.55,169.2667,82.4,78,40,6.38,scattered clouds
374,Whitianga,NZ,-36.8333,175.7,75.0,80,100,5.99,overcast clouds
375,Poum,NC,-20.2333,164.0167,80.85,72,40,8.66,scattered clouds
376,Pinheiro,BR,-2.5214,-45.0825,79.05,76,84,4.97,broken clouds
377,Tuni,IN,17.35,82.55,64.51,78,7,4.0,clear sky
378,Tofield,CA,53.3668,-112.6686,-16.6,83,11,16.11,few clouds
379,Shahr-E Kord,IR,32.3256,50.8644,26.6,80,0,2.3,clear sky
380,Sladkovo,RU,55.5284,70.3385,-5.57,90,100,14.03,overcast clouds
381,Puerto Escondido,MX,15.85,-97.0667,86.0,66,20,5.75,few clouds
382,Cockburn Town,TC,21.4612,-71.1419,78.8,73,75,13.8,broken clouds
383,Vung Tau,VN,10.346,107.0843,74.77,81,0,15.66,clear sky
384,Aron,IN,24.3833,77.4167,55.56,40,0,2.91,clear sky
385,Isla Vista,US,34.4133,-119.861,62.6,71,75,6.91,broken clouds
386,Krasnoselkup,RU,65.7,82.4667,-8.18,90,75,7.65,broken clouds
387,Ouargaye,BF,11.5033,0.0572,81.72,15,3,10.25,clear sky
388,Richmond,US,37.5538,-77.4603,45.0,49,20,9.22,few clouds
389,Fortuna,US,40.5982,-124.1573,54.0,76,1,9.22,clear sky
390,Mikun,RU,62.3547,50.0771,-23.64,84,53,6.89,broken clouds
391,Qiryat Gat,IL,31.61,34.7642,62.01,52,88,6.11,overcast clouds
392,Humaita,BR,-7.5061,-63.0208,83.44,76,100,3.2,moderate rain
393,Marang,MY,5.2056,103.2059,75.2,94,20,2.3,few clouds
394,Saint Peters,US,38.8003,-90.6265,21.99,79,90,10.36,light snow
395,Usinsk,RU,65.9939,57.5281,-15.14,89,100,7.9,overcast clouds
396,Maksatikha,RU,57.797,35.8825,-6.63,88,0,2.64,clear sky
397,Kropotkin,RU,45.4375,40.5756,33.96,93,100,9.4,light snow
398,Sioux Lookout,CA,50.1001,-91.917,-13.0,48,20,16.11,few clouds
399,Tempio Pausania,IT,40.8974,9.1035,55.4,88,40,5.75,scattered clouds
400,Shache,CN,38.4167,77.2406,29.14,81,3,1.19,clear sky
401,Wageningen,NL,51.9667,5.6667,21.0,86,75,8.05,broken clouds
402,Kijang,KR,35.2442,129.2139,24.8,50,0,4.61,clear sky
403,Vestmannaeyjar,IS,63.4427,-20.2734,36.79,79,60,15.97,broken clouds
404,Versalles,FR,48.8,2.1333,30.2,86,90,6.91,overcast clouds
405,Cabudare,VE,10.0289,-69.0894,80.44,64,45,8.93,scattered clouds
406,Chapais,CA,49.7834,-74.8492,5.0,51,1,11.5,clear sky
407,Port Blair,IN,11.6667,92.75,74.8,76,77,13.18,broken clouds
408,Kangaatsiaq,GL,68.3065,-53.4641,15.08,87,0,9.01,clear sky
409,Bacong,PH,9.2464,123.2956,78.8,89,40,4.61,scattered clouds
410,Lazaro Cardenas,MX,17.9583,-102.2,80.64,59,0,11.01,clear sky
411,Nabire,ID,-3.3667,135.4833,75.9,92,100,4.32,light rain
412,Kuala Terengganu,MY,5.3302,103.1408,75.2,94,20,2.3,few clouds
413,Omsukchan,RU,62.5333,155.8,0.7,89,100,12.53,overcast clouds
414,Awjilah,LY,29.1081,21.2869,59.79,47,100,10.33,overcast clouds
415,Mlyniv,UA,50.509,25.6168,16.0,90,100,1.99,snow
416,Katsuura,JP,35.1333,140.3,35.01,29,20,1.99,few clouds
417,Yar-Sale,RU,66.8333,70.8333,-19.37,87,0,5.08,clear sky
418,Beringovskiy,RU,63.05,179.3167,1.26,93,100,7.27,overcast clouds
419,Tottori,JP,35.5,134.2333,37.4,65,75,21.85,broken clouds
420,Sangin,AF,32.0728,64.8359,55.42,33,0,4.56,clear sky
421,Ghanzi,BW,-21.5667,21.7833,68.86,86,99,6.93,moderate rain
422,Montlucon,FR,46.3333,2.6,33.01,97,100,4.0,overcast clouds
423,Tual,ID,-5.6667,132.75,83.19,81,100,16.82,overcast clouds
424,Road Town,VG,18.4167,-64.6167,78.8,65,20,12.66,few clouds
425,Olafsvik,IS,64.8945,-23.7142,34.75,84,96,14.56,overcast clouds
426,Ukholovo,RU,53.7929,40.4892,-4.0,92,82,4.52,broken clouds
427,Baykit,RU,61.67,96.37,15.89,93,100,11.21,snow
428,Ulladulla,AU,-35.35,150.4667,63.0,100,75,6.91,broken clouds
429,Saint-Paul,RE,-21.0096,55.2707,77.0,78,0,11.5,clear sky
430,Severo-Yeniseyskiy,RU,60.3725,93.0408,21.72,96,100,10.47,light snow
431,Pimentel,PE,-6.8367,-79.9342,78.8,61,0,21.85,clear sky
432,Luganville,VU,-15.5333,167.1667,83.43,61,0,0.92,clear sky
433,Puerto Del Rosario,ES,28.5004,-13.8627,64.4,68,75,6.91,broken clouds
434,Guadalupe Victoria,MX,32.2869,-115.105,80.01,23,1,13.8,clear sky
435,Half Moon Bay,US,37.4636,-122.4286,57.99,67,75,3.44,broken clouds
436,At-Bashi,KG,41.1702,75.8106,21.97,88,94,0.81,overcast clouds
437,Port Hardy,CA,50.6996,-127.4199,37.4,52,20,9.22,few clouds
438,Ostrovnoy,RU,68.0531,39.5131,1.31,88,91,19.22,overcast clouds
439,Elk City,US,35.412,-99.4043,23.0,93,90,11.41,overcast clouds
440,Zalesovo,RU,53.9939,84.7431,9.66,92,100,17.69,overcast clouds
441,Alyangula,AU,-13.8483,136.4192,82.4,83,100,6.91,overcast clouds
442,Bela,IN,25.9333,81.9833,53.06,68,0,4.94,clear sky
443,Santa Maria Del Oro,MX,25.9333,-105.3667,76.17,16,0,3.42,clear sky
444,Clyde River,CA,70.4692,-68.5914,10.4,85,20,32.21,snow
445,Keti Bandar,PK,24.1447,67.4497,68.61,70,98,11.81,overcast clouds
446,Whitehorse,CA,60.7161,-135.0538,-15.0,63,20,6.91,few clouds
447,Srednekolymsk,RU,67.45,153.6833,-1.86,91,98,2.51,overcast clouds
448,Joshimath,IN,30.5667,79.5667,50.72,32,1,7.05,clear sky
449,Kusadak,RS,44.3997,20.8033,46.99,100,38,1.14,fog
450,Atlantic City,US,39.3643,-74.4229,33.01,55,1,9.22,clear sky
451,Platanos,GR,37.6667,21.6167,57.2,87,75,3.44,broken clouds
452,Zaragoza,ES,41.6561,-0.8773,52.0,66,20,9.22,few clouds
453,Saryagash,KZ,41.4511,69.1701,48.2,100,98,4.61,mist
454,Havoysund,NO,70.9963,24.6622,21.2,86,75,16.11,light snow
455,Ust-Uda,RU,54.1742,103.0304,9.82,93,100,4.41,overcast clouds
456,Touros,BR,-5.1989,-35.4608,82.4,74,0,11.5,clear sky
457,Evensk,RU,61.95,159.2333,7.9,89,88,41.72,overcast clouds
458,Corinto,GR,37.9407,22.9573,59.0,49,2,1.01,clear sky
459,Chengdu,CN,30.6667,104.0667,46.99,100,100,3.36,mist
460,Khasan,RU,42.4308,130.6434,9.14,84,20,11.18,few clouds
461,Edd,ER,13.9297,41.6925,75.0,75,100,12.35,overcast clouds
462,Victoria,HK,22.2855,114.1577,64.99,77,96,1.01,overcast clouds
463,Nambour,AU,-26.6333,152.95,73.99,80,64,4.0,broken clouds
464,Nemuro,JP,43.3236,145.575,18.37,89,84,20.24,light snow
465,Kaspiysk,RU,42.8816,47.6392,39.2,93,90,4.47,overcast clouds
466,Hauterive,FR,46.0901,3.4459,35.6,93,90,5.75,light rain
467,Arkhangelsk,RU,64.5401,40.5433,-14.8,76,90,1.1,overcast clouds
468,Emerald,AU,-23.5333,148.1667,78.8,78,90,14.97,overcast clouds
469,Dali,CN,25.7,100.1833,41.68,85,100,2.66,overcast clouds
470,Toamasina,MG,-18.1667,49.3833,77.0,94,40,2.3,light rain
471,Nouadhibou,MR,20.931,-17.0347,64.4,72,0,18.41,clear sky
472,Jiayuguan,CN,39.8167,98.3,30.56,69,48,5.12,scattered clouds
473,Kasama,ZM,-10.2129,31.1808,65.17,96,100,3.91,moderate rain
474,Kaeo,NZ,-35.1,173.7833,72.0,84,100,5.99,overcast clouds
475,Walvis Bay,NA,-22.9575,14.5053,64.4,82,40,6.91,scattered clouds
476,Luau,AO,-10.7073,22.2247,65.43,97,100,3.78,overcast clouds
477,Northam,GB,51.0333,-4.2167,33.01,78,62,11.01,broken clouds
478,Richards Bay,ZA,-28.783,32.0377,75.24,90,43,5.41,light rain
479,Tapah,MY,4.2004,101.2598,77.0,88,20,3.33,few clouds
480,Aklavik,CA,68.2191,-135.0107,-36.4,74,100,4.61,overcast clouds
481,Gamba,GA,-2.65,10.0,79.12,88,99,5.68,overcast clouds
482,Hammerfest,NO,70.6634,23.6821,21.2,86,75,16.11,light snow
483,Ulaangom,MN,49.9811,92.0667,-2.42,90,99,2.33,overcast clouds
484,Ayabaca,PE,-4.6398,-79.7149,56.61,100,98,4.72,light rain
485,Canico,PT,32.6333,-16.85,60.8,77,20,9.22,few clouds
486,Yangambi,CD,0.8102,24.4336,70.83,50,100,1.52,overcast clouds
487,Paamiut,GL,61.994,-49.6678,30.45,85,78,11.3,broken clouds
488,Panguna,PG,-6.3164,155.4848,76.14,89,100,2.37,light rain
489,Pedasi,PA,7.5333,-80.0333,82.76,75,78,13.69,broken clouds
490,La Garriga,ES,41.6833,2.2833,51.01,84,87,1.57,overcast clouds
491,Orlik,RU,52.5178,99.825,10.24,83,100,2.77,overcast clouds
492,Shakiso,ET,5.75,38.9167,66.96,51,98,3.06,overcast clouds
493,Owando,CG,-0.4819,15.8999,77.52,67,44,2.77,scattered clouds
494,Pindiga,NG,9.9833,10.9333,76.03,18,49,8.03,scattered clouds
495,Bima,ID,-8.4667,118.7167,76.26,86,94,1.99,overcast clouds
496,Netanya,IL,32.3329,34.8599,62.01,67,0,2.3,clear sky
497,Kaitong,CN,44.8135,123.15,5.77,91,0,10.27,clear sky
498,Kalinagar,IN,28.6167,80.1,52.9,66,0,3.42,clear sky
499,Bubaque,GW,11.2833,-15.8333,77.13,65,9,16.02,clear sky
500,Marsa Matruh,EG,31.3525,27.2453,64.4,32,0,13.8,clear sky
501,Bezhetsk,RU,57.7851,36.6965,-7.02,87,0,4.41,clear sky
502,Kuantan,MY,3.8077,103.326,73.4,94,20,1.14,few clouds
503,Salta,AR,-24.7859,-65.4117,75.2,57,75,8.05,broken clouds
504,Lamar,US,33.6668,-95.5836,55.99,71,90,9.22,overcast clouds
505,Sinegorskiy,RU,48.0139,40.8447,20.37,96,100,16.62,snow
506,San Jose,US,37.3394,-121.895,64.0,55,75,9.22,broken clouds
507,Derzhavinsk,KZ,51.1,66.3167,-6.72,89,100,22.37,overcast clouds
508,Veraval,IN,20.9,70.3667,70.5,45,0,8.14,clear sky
509,Brookhaven,US,31.5791,-90.4407,62.01,76,100,4.85,overcast clouds
510,Tanout,NE,14.9709,8.8879,66.87,20,7,11.3,clear sky
511,Belyy Yar,RU,53.6039,91.3903,12.2,92,99,2.24,smoke
512,Limon,CR,10.0,-83.0333,84.2,70,0,8.05,clear sky
513,Manga,BF,11.6636,-1.0731,80.71,16,0,7.65,clear sky
514,Poya,NC,-21.35,165.15,81.72,69,2,3.29,clear sky
515,Abay,KZ,49.6311,72.8539,-4.0,77,75,24.61,snow
516,Xining,CN,36.6167,101.7667,24.28,67,46,1.95,scattered clouds
517,Chumikan,RU,54.7183,135.315,-3.33,84,100,21.74,overcast clouds
518,Ukiah,US,39.1502,-123.2078,61.0,41,20,3.44,few clouds
519,Nuevo Progreso,MX,23.1667,-97.95,82.0,79,5,4.0,clear sky
520,Krutinka,RU,56.0055,71.5113,-3.66,90,100,13.98,overcast clouds
521,Sohag,EG,26.557,31.6948,62.6,48,0,1.14,clear sky
522,Mackay,AU,-21.15,149.2,78.8,89,90,8.05,overcast clouds
523,Oistins,BB,13.0667,-59.5333,80.6,57,40,16.11,scattered clouds
524,Nyurba,RU,63.2842,118.3319,-23.66,86,80,3.74,broken clouds
525,Saint-Pierre,RE,-21.3393,55.4781,77.0,73,0,5.75,clear sky
526,Siilinjarvi,FI,63.0833,27.6667,5.0,92,90,5.75,light snow
527,Mahebourg,MU,-20.4081,57.7,78.8,83,75,6.91,light rain
528,Smithers,CA,54.7804,-127.1743,6.8,56,75,13.8,broken clouds
529,Moosomin,CA,50.1333,-101.6677,-17.32,80,0,18.61,clear sky
530,Guarapari,BR,-20.6667,-40.4975,78.01,94,75,3.44,broken clouds
531,Chicama,PE,-7.8447,-79.1469,69.8,88,82,9.22,broken clouds
532,Parrita,CR,9.5201,-84.3225,80.6,53,20,17.27,few clouds
533,Inuvik,CA,68.3499,-133.7218,-36.4,74,100,4.61,overcast clouds
534,Farafangana,MG,-22.8167,47.8333,78.58,88,100,8.7,light rain
535,Shaunavon,CA,49.6501,-108.4181,-16.6,69,45,19.57,scattered clouds
536,Grootfontein,NA,-19.5667,18.1167,66.2,94,100,3.44,light rain
537,Raglan,NZ,-37.8,174.8833,73.0,78,100,3.0,overcast clouds
538,Naze,JP,28.3667,129.4833,57.2,62,75,16.11,broken clouds
539,Zhangye,CN,38.9342,100.4517,31.6,63,0,4.03,clear sky
540,Shingu,JP,33.7333,135.9833,31.5,90,0,4.7,clear sky
541,Colares,PT,38.7992,-9.4469,57.0,91,100,17.78,overcast clouds
542,Luba,GQ,3.4568,8.5547,81.75,80,80,10.56,broken clouds
543,Kuruman,ZA,-27.4524,23.4325,75.4,54,40,10.27,scattered clouds
544,Ambulu,ID,-8.345,113.6058,75.16,89,96,2.73,overcast clouds
545,Manzhouli,CN,49.6,117.4333,4.15,92,0,5.55,clear sky
546,Avera,US,33.194,-82.5271,60.8,63,90,8.05,overcast clouds
547,Biak,ID,-0.9131,122.8766,76.1,80,100,0.43,overcast clouds
548,Gazli,UZ,40.1333,63.45,40.5,69,34,4.25,scattered clouds
549,Tavda,RU,58.0425,65.2726,-11.51,88,100,8.03,overcast clouds
550,Wiarton,CA,44.7407,-81.1332,15.01,73,90,14.97,snow
551,Trzcianka,PL,53.0406,16.4563,17.01,96,100,5.99,overcast clouds
552,Kimbe,PG,-5.5502,150.1429,82.56,73,32,2.1,scattered clouds
553,Tiznit,MA,29.5833,-9.5,52.45,84,28,2.75,scattered clouds
554,Ceres,US,37.5949,-120.9577,64.0,55,1,2.53,clear sky
555,Kutum,SD,14.2,24.6667,56.01,34,7,10.54,clear sky
556,Cherskiy,RU,68.75,161.3,5.38,76,100,6.67,overcast clouds
557,Sinnamary,GF,5.3833,-52.95,77.9,80,32,14.61,scattered clouds
558,Cayenne,GF,4.9333,-52.3333,80.6,74,75,9.22,broken clouds
559,Liverpool,GB,53.4106,-2.9779,32.0,80,75,9.22,broken clouds
560,Lebyazhye,RU,55.2689,66.4947,-9.72,88,100,14.94,overcast clouds
561,Denia,ES,38.8408,0.1057,59.0,48,17,8.01,few clouds
562,Dumas,US,35.8656,-101.9732,37.4,60,1,9.22,clear sky
563,Santa Vitoria Do Palmar,BR,-33.5189,-53.3681,66.52,90,89,5.97,overcast clouds
564,Blackwater,AU,-23.5833,148.8833,75.63,79,92,16.26,overcast clouds
565,Hami,CN,42.8,93.45,30.97,78,41,4.63,scattered clouds
566,Uglegorskiy,RU,48.2427,41.2531,19.38,95,100,16.08,snow
567,Huilong,CN,31.8111,121.655,44.01,74,73,1.99,broken clouds
568,Piet Retief,ZA,-27.0071,30.8132,64.65,98,100,4.97,light rain
569,Manoel Urbano,BR,-8.8389,-69.2597,80.02,93,100,0.6,light rain
570,Vikhorevka,RU,56.1201,101.1636,24.8,68,98,15.66,overcast clouds
571,Yarada,IN,17.65,83.2667,64.4,94,37,2.3,mist
572,Blackfalds,CA,52.3834,-113.7853,-14.8,76,82,5.75,broken clouds
573,Goure,NE,13.9835,10.2704,68.54,20,29,10.07,scattered clouds
574,Hengyang,CN,26.8881,112.615,48.92,83,100,4.09,overcast clouds
575,Salinas,US,36.6777,-121.6555,57.0,71,1,11.5,clear sky
576,Tessalit,ML,20.1986,1.0114,64.4,22,48,10.67,scattered clouds
577,Bairiki,KI,1.3292,172.9752,82.4,89,20,10.36,few clouds
578,Tchaourou,BJ,8.8865,2.5975,79.88,16,0,5.64,clear sky
579,Cacador,BR,-26.7753,-51.015,66.22,60,71,1.61,broken clouds
580,Monroe,US,43.1501,-77.6831,24.01,50,20,3.51,few clouds
581,Beachwood,US,41.4645,-81.5087,25.0,58,90,5.75,overcast clouds
582,Larsnes,NO,62.2028,5.5773,24.01,74,0,3.0,clear sky
583,Bingol,TR,38.8847,40.4939,37.29,79,100,1.36,overcast clouds
584,Presidencia Roque Saenz Pena,AR,-26.7852,-60.4388,88.0,43,100,1.99,overcast clouds
585,Bouna,CI,9.2667,-3.0,80.65,20,0,2.62,clear sky
586,Marquette,US,46.5333,-87.6335,8.01,39,48,3.0,scattered clouds
587,Chengde,CN,40.9725,117.9361,20.26,79,15,3.27,few clouds
588,Chake Chake,TZ,-5.2459,39.7666,78.28,87,100,8.81,overcast clouds
589,Seoul,KR,37.5683,126.9778,19.4,63,0,2.3,clear sky
590,La Ronge,CA,55.1001,-105.2842,-20.2,57,100,12.66,overcast clouds
591,La Asuncion,VE,11.0333,-63.8628,77.29,82,1,16.89,clear sky
592,Tukrah,LY,32.5341,20.5791,58.86,79,1,7.29,clear sky
593,Marienburg,PL,54.0359,19.0266,17.01,100,100,13.38,light snow
594,Kieta,PG,-6.2167,155.6333,82.38,80,86,9.84,light rain
595,Olinda,BR,-8.0089,-34.8553,80.6,65,40,8.05,scattered clouds
596,Katobu,ID,-4.9408,122.5276,76.46,91,100,2.66,overcast clouds
597,Lahat,ID,-3.8,103.5333,71.8,88,100,2.06,overcast clouds
598,Santa Cruz De La Palma,ES,28.6835,-17.7642,66.2,63,75,4.61,broken clouds
599,Senno,RU,59.5336,33.9167,-1.12,93,24,4.45,few clouds
600,Moroni,KM,-11.7022,43.2551,81.3,79,100,12.3,moderate rain
601,Mogadishu,SO,2.0371,45.3438,77.31,84,94,21.7,overcast clouds
602,Constantine,DZ,36.365,6.6147,50.0,76,75,20.71,broken clouds
603,Rubbestadneset,NO,59.8147,5.2681,23.0,58,6,12.66,clear sky
604,Marneuli,GE,41.4759,44.8089,39.2,87,100,4.61,overcast clouds
605,Maniitsoq,GL,65.4167,-52.9,24.01,82,0,13.2,clear sky
606,Asau,RO,46.4333,26.4,34.0,75,99,5.39,overcast clouds
607,Qasigiannguit,GL,68.8193,-51.1922,24.8,36,0,24.16,clear sky
608,Aktyubinskiy,RU,54.8137,52.8056,-19.08,89,100,13.24,overcast clouds
609,Nizwa,OM,22.9333,57.5333,57.99,73,98,0.81,overcast clouds
610,Bayshore Gardens,US,27.4253,-82.5904,78.01,69,90,4.61,overcast clouds
611,College,US,64.8569,-147.8028,-7.01,76,1,6.91,clear sky
612,Sweetwater,US,25.7634,-80.3731,82.99,65,40,11.5,scattered clouds
613,Saratovskaya,RU,44.7103,39.2244,30.2,93,0,6.71,clear sky
614,Flin Flon,CA,54.7682,-101.865,-20.2,63,90,16.11,snow
615,Bardiyah,LY,31.7561,25.0865,61.02,78,0,11.18,clear sky
616,Tommot,RU,58.9564,126.2925,-11.29,88,100,0.87,overcast clouds
617,Diamantino,BR,-14.4086,-56.4461,79.0,60,33,1.07,scattered clouds
618,Singaraja,ID,-8.112,115.0882,77.56,80,100,2.77,overcast clouds
619,Waipawa,NZ,-41.4122,175.5153,66.2,77,90,20.71,moderate rain
620,Marquard,ZA,-28.6645,27.4305,67.68,61,7,13.0,clear sky
621,Acapulco,MX,16.8634,-99.8901,84.2,65,20,10.36,few clouds
622,Camopi,GF,3.1655,-52.3158,74.48,94,98,4.61,overcast clouds
623,Bundaberg,AU,-24.85,152.35,82.0,69,3,9.22,clear sky
624,Maragogi,BR,-9.0122,-35.2225,78.85,74,24,9.78,few clouds
625,Qunduz,AF,36.729,68.857,53.8,50,41,1.54,scattered clouds
626,Arlit,NE,18.7369,7.3853,72.55,17,85,4.43,overcast clouds
627,Mahajanga,MG,-15.7167,46.3167,75.2,94,40,12.66,moderate rain
628,Pascagoula,US,30.3658,-88.5561,63.0,67,40,11.5,scattered clouds
629,Qaqortoq,GL,60.7167,-46.0333,39.2,28,75,37.98,broken clouds
630,Vila Do Maio,CV,15.1333,-23.2167,68.0,77,90,18.41,overcast clouds
631,Curaca,BR,-8.9903,-39.9094,89.11,36,84,6.71,broken clouds
632,Ottawa,CA,45.4112,-75.6981,19.99,57,75,11.5,broken clouds
633,Visegrad,BA,43.7847,19.2992,41.0,56,0,1.14,clear sky
634,Sindou,BF,10.6667,-5.1667,80.35,19,1,3.2,clear sky
635,Eureka,US,40.8021,-124.1637,50.0,75,100,4.0,overcast clouds
636,Anloga,GH,5.7947,0.8973,82.4,83,20,11.5,few clouds
637,Zhanakorgan,KZ,43.9098,67.2495,28.31,86,100,3.74,overcast clouds
638,Alexandria,EG,31.2156,29.9553,59.0,88,0,8.05,clear sky
639,Taywarah,AF,33.35,64.4167,30.7,78,27,2.55,scattered clouds
640,Clarence Town,AU,-32.5833,151.7833,73.0,73,75,10.36,broken clouds
641,Takaungu,KE,-3.6837,39.8566,78.8,89,75,3.44,broken clouds
642,Teya,RU,60.3778,92.6267,23.76,95,100,5.84,light snow
643,Padilla,CO,3.2204,-76.3139,80.6,61,75,12.66,light rain
644,Suluq,LY,31.6682,20.2521,57.07,78,0,2.89,clear sky
645,Warrnambool,AU,-38.3833,142.4833,57.99,81,8,1.01,clear sky
646,Cafarnaum,BR,-11.6936,-41.4683,70.65,85,100,5.14,overcast clouds
647,Bhakkar,PK,31.6253,71.0657,55.78,41,4,3.49,clear sky
648,Ahipara,NZ,-35.1667,173.1667,70.59,73,100,10.83,light rain
649,Micomeseng,GQ,2.1462,10.6164,70.77,99,100,3.04,overcast clouds
650,Cap Malheureux,MU,-19.9842,57.6142,75.99,84,15,1.99,few clouds
651,Bontang,ID,0.1333,117.5,78.87,80,100,1.61,overcast clouds
652,Beloha,MG,-25.1667,45.05,77.59,80,100,2.93,light rain
653,Ratnagiri,IN,16.9833,73.3,72.05,36,0,5.91,clear sky
654,Hokitika,NZ,-42.7167,170.9667,59.14,93,100,10.96,light rain
655,Belle Fourche,US,44.6714,-103.8522,5.0,71,20,5.75,few clouds
656,Agar,IN,23.7,76.0167,57.06,37,0,2.15,clear sky
657,Santo Amaro Das Brotas,BR,-10.7889,-37.0544,80.6,74,20,14.97,few clouds
658,Santa Fe,AR,-31.6333,-60.7,81.0,68,96,1.99,overcast clouds
659,Yabrud,SY,33.9674,36.6574,51.8,76,0,14.47,clear sky
660,Gaoual,GN,11.75,-13.2,80.53,20,2,1.5,clear sky
661,Los Llanos De Aridane,ES,28.6585,-17.9182,66.2,63,75,4.61,broken clouds
662,Perth,AU,-31.9333,115.8333,63.0,94,75,4.61,broken clouds
663,Cabcab,PH,13.6268,124.0515,78.53,83,100,13.89,moderate rain
664,Pochutla,MX,15.7432,-96.4661,88.0,48,20,6.17,few clouds
665,Karratha,AU,-20.7377,116.8463,78.58,75,18,11.99,few clouds
666,Puga,MX,21.5833,-104.8167,86.0,26,1,12.66,clear sky
667,Tiarei,PF,-17.5333,-149.3333,87.01,62,20,10.36,few clouds
668,Yelizavetinskoye,RU,45.0072,43.3494,26.83,98,100,13.94,snow
669,Albert,FR,50.0009,2.651,23.0,93,90,10.36,overcast clouds
670,Santa Cruz,BO,-17.8,-63.1667,89.6,48,75,6.91,broken clouds
671,Kloulklubed,PW,7.0419,134.2556,80.6,78,90,5.75,overcast clouds
672,Tilichiki,RU,60.4667,166.1,17.85,97,91,8.39,overcast clouds
673,Mikasa,JP,43.251,141.9043,23.0,58,75,13.8,light snow
674,Puerto Maldonado,PE,-12.6,-69.1833,85.41,70,100,1.95,overcast clouds
675,Karasjok,NO,69.4719,25.5112,19.4,73,75,16.11,broken clouds
676,Hovd,MN,48.0056,91.6419,12.79,88,42,1.48,scattered clouds
677,Suclayin,PH,15.7568,121.5503,71.53,87,99,3.47,overcast clouds
678,Rafaela,AR,-31.2503,-61.4867,84.78,34,100,1.21,overcast clouds
679,Constitucion,CL,-35.3333,-72.4167,64.58,75,14,12.62,few clouds
680,Sangre Grande,TT,10.5835,-61.1177,82.4,57,20,18.41,few clouds
681,Homer,US,59.6425,-151.5483,21.99,63,1,11.5,clear sky
682,Portlethen,GB,57.0547,-2.1307,33.8,55,40,9.22,light snow
683,Svetlyy,RU,54.675,20.1347,17.6,86,90,22.37,snow
684,Thai Binh,VN,20.45,106.3333,64.4,88,90,11.5,overcast clouds
685,Piracuruca,BR,-3.9281,-41.7092,77.0,87,99,5.93,overcast clouds
686,Along,IN,28.1667,94.7667,48.96,56,0,1.77,clear sky
687,Kanniyakumari,IN,8.0833,77.5667,75.47,70,58,24.38,broken clouds
688,Tuy Hoa,VN,13.0833,109.3,70.48,89,78,4.16,broken clouds
689,Puerto Carreno,CO,6.189,-67.4859,92.48,41,93,15.03,overcast clouds
